[{"pk": 14, "model": "general.roaster", "fields": {"website": "", "city": "", "gplus": "", "name": "Nagadi", "country": "", "twitter": "", "zipcode": null, "rating_score": 0, "phone": null, "state": "", "address": "", "lat": null, "fbook": "", "rating_votes": 0, "lgt": null, "thumb": ""}}, {"pk": 15, "model": "general.roaster", "fields": {"website": "http://www.handsomecoffee.com/", "city": "Los Angeles", "gplus": null, "name": "Handsome Coffee Roasters", "country": "US", "twitter": "@HandsomeRoaster", "zipcode": 90013, "rating_score": 0, "phone": "2136214194", "state": "CA", "address": "582 Mateo Street", "lat": null, "fbook": "https://www.facebook.com/pages/Handsome-Coffee-Roasters-Arts-District-Coffee-Bar/238642302859520", "rating_votes": 0, "lgt": null, "thumb": ""}}, {"pk": 16, "model": "general.roaster", "fields": {"website": "http://www.nagadicoffee.com/", "city": "Silver Spring", "gplus": null, "name": "Nagadi Coffee Roastery", "country": "US", "twitter": "@nagadicoffee", "zipcode": 20910, "rating_score": 0, "phone": null, "state": "MD", "address": "9325 Fraser Avenue", "lat": null, "fbook": "https://www.facebook.com/pages/Nagadi-Coffee/143644429031140", "rating_votes": 0, "lgt": null, "thumb": ""}}, {"pk": 17, "model": "general.roaster", "fields": {"website": "http://www.intelligentsiacoffee.com/", "city": "Chicago", "gplus": null, "name": "Intelligentsia Coffee", "country": "US", "twitter": "@Intelligentsia", "zipcode": 60612, "rating_score": 0, "phone": "3125630023", "state": "IL", "address": "1850 West Fulton St.", "lat": null, "fbook": "https://www.facebook.com/IntelligentsiaCoffee", "rating_votes": 0, "lgt": null, "thumb": ""}}, {"pk": 18, "model": "general.roaster", "fields": {"website": "http://www.heartroasters.com/", "city": "Portland", "gplus": null, "name": "Heart Roasters", "country": "US", "twitter": null, "zipcode": 97214, "rating_score": 0, "phone": "5032066602", "state": "OR", "address": "2211 E. Burnside St.", "lat": null, "fbook": null, "rating_votes": 0, "lgt": null, "thumb": ""}}, {"pk": 19, "model": "general.roaster", "fields": {"website": "http://kaldiscoffee.com/", "city": "Saint Louis", "gplus": null, "name": "Kaldi's Coffee", "country": "US", "twitter": null, "zipcode": null, "rating_score": 0, "phone": null, "state": "MO", "address": null, "lat": null, "fbook": null, "rating_votes": 0, "lgt": null, "thumb": ""}}, {"pk": 20, "model": "general.roaster", "fields": {"website": "http://vigilantecoffee.myshopify.com/", "city": "Washington", "gplus": null, "name": "Vigilante Coffee", "country": "US", "twitter": null, "zipcode": null, "rating_score": 0, "phone": null, "state": "DC", "address": null, "lat": null, "fbook": null, "rating_votes": 0, "lgt": null, "thumb": ""}}, {"pk": 21, "model": "general.roaster", "fields": {"website": "http://www.counterculturecoffee.com/", "city": "Durham", "gplus": null, "name": "Counter Culture Coffee", "country": "US", "twitter": "@counter_culture", "zipcode": 27713, "rating_score": 0, "phone": "9193615282", "state": "NC", "address": "4911 South Alston Avenue", "lat": null, "fbook": "https://www.facebook.com/counterculturecoffee", "rating_votes": 0, "lgt": null, "thumb": ""}}, {"pk": 22, "model": "general.roaster", "fields": {"website": "http://www.keancoffee.com/", "city": "Newport Beach", "gplus": null, "name": "K\u00e9an Coffee", "country": "US", "twitter": null, "zipcode": 92780, "rating_score": 0, "phone": null, "state": "CA", "address": null, "lat": null, "fbook": null, "rating_votes": 0, "lgt": null, "thumb": ""}}, {"pk": 23, "model": "general.roaster", "fields": {"website": "http://madcapcoffee.com/", "city": "Grand Rapids", "gplus": null, "name": "Madcap Coffee", "country": "US", "twitter": null, "zipcode": 49503, "rating_score": 0, "phone": null, "state": "MI", "address": null, "lat": null, "fbook": null, "rating_votes": 0, "lgt": null, "thumb": ""}}, {"pk": 24, "model": "general.roaster", "fields": {"website": "http://stumptowncoffee.com/", "city": "Portland", "gplus": null, "name": "Stumptown Coffee Roasters", "country": "US", "twitter": null, "zipcode": 97206, "rating_score": 0, "phone": null, "state": "OR", "address": null, "lat": null, "fbook": null, "rating_votes": 0, "lgt": null, "thumb": ""}}, {"pk": 25, "model": "general.roaster", "fields": {"website": "http://www.vervecoffeeroasters.com/", "city": "Santa Cruz", "gplus": null, "name": "Verve Coffee Roasters", "country": "US", "twitter": null, "zipcode": 95062, "rating_score": 0, "phone": null, "state": "CA", "address": null, "lat": null, "fbook": null, "rating_votes": 0, "lgt": null, "thumb": ""}}, {"pk": 26, "model": "general.roaster", "fields": {"website": "http://www.caffeladro.com/", "city": "Seattle", "gplus": null, "name": "Caffe Ladro", "country": "US", "twitter": null, "zipcode": 98109, "rating_score": 0, "phone": null, "state": "WA", "address": null, "lat": null, "fbook": null, "rating_votes": 0, "lgt": null, "thumb": ""}}, {"pk": 27, "model": "general.roaster", "fields": {"website": "http://www.ritualroasters.com/", "city": "San Francisco", "gplus": null, "name": "Ritual Coffee Roasters", "country": "US", "twitter": null, "zipcode": 94110, "rating_score": 0, "phone": null, "state": "CA", "address": null, "lat": null, "fbook": null, "rating_votes": 0, "lgt": null, "thumb": ""}}, {"pk": 28, "model": "general.roaster", "fields": {"website": "http://www.joenewyork.com/", "city": "Brooklyn", "gplus": null, "name": "Joe", "country": "US", "twitter": null, "zipcode": 11231, "rating_score": 0, "phone": null, "state": "NY", "address": null, "lat": null, "fbook": null, "rating_votes": 0, "lgt": null, "thumb": ""}}, {"pk": 29, "model": "general.roaster", "fields": {"website": "http://fourbarrelcoffee.com/", "city": "San Francisco", "gplus": null, "name": "Four Barrel Coffee", "country": "US", "twitter": null, "zipcode": 94103, "rating_score": 0, "phone": null, "state": "CA", "address": null, "lat": null, "fbook": null, "rating_votes": 0, "lgt": null, "thumb": ""}}, {"pk": 30, "model": "general.roaster", "fields": {"website": "http://www.metropoliscoffee.com/", "city": "Chicago", "gplus": null, "name": "Metropolis Coffee Company", "country": "US", "twitter": null, "zipcode": 60660, "rating_score": 0, "phone": null, "state": "IL", "address": null, "lat": null, "fbook": null, "rating_votes": 0, "lgt": null, "thumb": ""}}, {"pk": 31, "model": "general.roaster", "fields": {"website": "http://coavacoffee.com/", "city": "Portland", "gplus": null, "name": "Coava Coffee", "country": "US", "twitter": null, "zipcode": 92714, "rating_score": 0, "phone": null, "state": "OR", "address": null, "lat": null, "fbook": null, "rating_votes": 0, "lgt": null, "thumb": ""}}, {"pk": 32, "model": "general.roaster", "fields": {"website": "http://www.ptscoffee.com/", "city": "Topeka", "gplus": null, "name": "PT's Coffee Roasting Company", "country": "US", "twitter": null, "zipcode": 66604, "rating_score": 0, "phone": null, "state": "KS", "address": null, "lat": null, "fbook": null, "rating_votes": 0, "lgt": null, "thumb": ""}}, {"pk": 33, "model": "general.roaster", "fields": {"website": "http://www.sightglasscoffee.com/", "city": "San Francisco", "gplus": null, "name": "Sightglass Coffee", "country": "US", "twitter": null, "zipcode": 94103, "rating_score": 0, "phone": null, "state": "CA", "address": null, "lat": null, "fbook": null, "rating_votes": 0, "lgt": null, "thumb": ""}}, {"pk": 34, "model": "general.roaster", "fields": {"website": "http://www.gimmecoffee.com/", "city": "Ithaca", "gplus": null, "name": "Gimme! Coffee", "country": "US", "twitter": null, "zipcode": 14850, "rating_score": 0, "phone": null, "state": "NY", "address": null, "lat": null, "fbook": null, "rating_votes": 0, "lgt": null, "thumb": ""}}, {"pk": 35, "model": "general.roaster", "fields": {"website": "http://www.ceremonycoffee.com/", "city": "Annapolis", "gplus": null, "name": "Ceremony Coffee Roasters", "country": "US", "twitter": null, "zipcode": 21401, "rating_score": 0, "phone": null, "state": "MD", "address": null, "lat": null, "fbook": null, "rating_votes": 0, "lgt": null, "thumb": ""}}, {"pk": 36, "model": "general.roaster", "fields": {"website": "http://www.wreckingballcoffee.com/", "city": "San Francisco", "gplus": null, "name": "Wrecking Ball Coffee Roasters", "country": "US", "twitter": null, "zipcode": null, "rating_score": 0, "phone": null, "state": "CA", "address": null, "lat": null, "fbook": null, "rating_votes": 0, "lgt": null, "thumb": ""}}, {"pk": 37, "model": "general.roaster", "fields": {"website": "http://www.cafegrumpy.com/", "city": "Brooklyn ", "gplus": null, "name": "Cafe Grumpy", "country": "US", "twitter": null, "zipcode": 11222, "rating_score": 0, "phone": null, "state": "NY", "address": null, "lat": null, "fbook": null, "rating_votes": 0, "lgt": null, "thumb": ""}}]