[{"pk": 7, 
  "model": "general.store", 
  "fields": {"website": "http://www.nagadicoffee.com/", 
	     "city": "Silver Spring", 
	     "gplus": null, 
	     "name": "Nagadi Coffee", 
	     "country": "US", 
	     "twitter": null, 
	     "zipcode": null, 
	     "rating_score": 0, 
	     "phone": null, 
	     "state": "MD", 
	     "address": null, 
	     "lat": null, 
	     "fbook": null, 
	     "rating_votes": 0, 
	     "lgt": null, 
	     "thumb": ""}}, 
 {"pk": 8, 
  "model": "general.store", 
  "fields": {"website": "http://www.grosvenormarket.com/", 
	     "city": "North Bethesda", 
	     "gplus": null, 
	     "name": "Grosvenor Market", 
	     "country": "US", 
	     "twitter": null, 
	     "zipcode": null, 
	     "rating_score": 0, 
	     "phone": null, 
	     "state": "MD", 
	     "address": null, 
	     "lat": null, 
	     "fbook": null, 
	     "rating_votes": 0, 
	     "lgt": null, 
	     "thumb": ""}}, 
 {"pk": 9, 
  "model": "general.store", 
  "fields": {"website": "http://www.craftcoffee.com/", 
	     "city": null, 
	     "gplus": null, 
	     "name": "Craft Coffee", 
	     "country": "US", 
	     "twitter": null, 
	     "zipcode": null, 
	     "rating_score": 0, 
	     "phone": null, 
	     "state": "NY", 
	     "address": null, 
	     "lat": null, 
	     "fbook": null, 
	     "rating_votes": 0, 
	     "lgt": null, 
	     "thumb": ""}}, 
 {"pk": 10, 
  "model": "general.store", 
  "fields": {"website": "http://dolcezzagelato.com/", 
	     "city": "Washington", 
	     "gplus": null, 
	     "name": "Dolcezza Gelato, Dupont Circle", 
	     "country": "US", 
	     "twitter": null, 
	     "zipcode": null, 
	     "rating_score": 0, 
	     "phone": null, 
	     "state": "DC", 
	     "address": null, 
	     "lat": null, 
	     "fbook": null, 
	     "rating_votes": 0, 
	     "lgt": null, 
	     "thumb": ""}}, 
 {"pk": 11, 
  "model": "general.store", 
  "fields": {"website": "http://dolcezzagelato.com/", 
	     "city": "Bethesda", 
	     "gplus": null, 
	     "name": "Dolcezza Gelato, Bethesda Row", 
	     "country": "US", 
	     "twitter": null, 
	     "zipcode": null, 
	     "rating_score": 0, 
	     "phone": null, 
	     "state": "MD", 
	     "address": null, 
	     "lat": null, 
	     "fbook": null, 
	     "rating_votes": 0, 
	     "lgt": null, 
	     "thumb": ""}}, 
 {"pk": 12, 
  "model": "general.store", 
  "fields": {"website": "http://filtercoffeehouse.com/", 
	     "city": "Washington", 
	     "gplus": null, 
	     "name": "Filter Coffeehouse & Espresso Bar, Dupont Circle", 
	     "country": "US", 
	     "twitter": null, 
	     "zipcode": null, 
	     "rating_score": 0, 
	     "phone": null, 
	     "state": "DC", 
	     "address": null, 
	     "lat": null, 
	     "fbook": null, 
	     "rating_votes": 0, 
	     "lgt": null, 
	     "thumb": ""}}, 
 {"pk": 13, 
  "model": "general.store", 
  "fields": {"website": "http://peregrineespresso.com/", 
	     "city": "Washington", 
	     "gplus": null, 
	     "name": "Peregrine Espresso, Eastern Market", 
	     "country": "US", 
	     "twitter": null, 
	     "zipcode": null, 
	     "rating_score": 0, 
	     "phone": null, 
	     "state": "DC", 
	     "address": null, 
	     "lat": null, 
	     "fbook": null, 
	     "rating_votes": 0, 
	     "lgt": null, 
	     "thumb": ""}}, 
 {"pk": 14, 
  "model": "general.store", 
  "fields": {"website": "http://www.trystdc.com/", 
	     "city": null, 
	     "gplus": null, 
	     "name": "Tryst", 
	     "country": "US", 
	     "twitter": null, 
	     "zipcode": null, 
	     "rating_score": 0, 
	     "phone": null, 
	     "state": "DC", 
	     "address": "Washington", 
	     "lat": null, 
	     "fbook": null, 
	     "rating_votes": 0, 
	     "lgt": null, 
	     "thumb": ""}
 }
]
